{
  "monday": [
    {
      "title": "Acredita√ß√£o",
      "hours": "05/06/2022 9:30 AM",
      "speaker": null,
      "company": null,
      "href": null
    },
    {
      "title": "Sess√£o de abertura",
      "hours": "05/06/2022 10:00 AM",
      "speaker": null,
      "company": null,
      "href": null
    },
    {
      "title": "‚òï Coffee break",
      "hours": "05/06/2022 11:00 AM",
      "speaker": null,
      "company": null,
      "href": null
    },
    {
      "title": "[Talk] Do algoritmo ao impacto: uma viagem pela disrup√ß√£o da IA",
      "hours": "05/06/2022 11:30 AM",
      "speaker": "Michel Ozzello",
      "company": "Agentifai",
      "href": null
    },
    {
      "title": "üçù Almo√ßo",
      "hours": "05/06/2022 12:30 PM",
      "speaker": null,
      "company": null,
      "href": null
    },
    {
      "title": "[Pitch] AgentifAI",
      "hours": "05/06/2022 02:00 AM",
      "speaker": null,
      "company": null,
      "href": null
    },
    {
      "title": "[Talk] Functional Web Development",
      "hours": "05/06/2022 02:15 AM",
      "speaker": "N√©lson Estev√£o",
      "company": "Marmela",
      "href": null
    },
    {
      "title": "[Pitch] Bliss",
      "hours": "05/06/2022 03:10 PM",
      "speaker": null,
      "company": null,
      "href": null
    },
    {
      "title": "[Talk] Web and Mobile Development in 2023",
      "hours": "05/06/2022 03:20 PM",
      "speaker": "Nuno Pereira",
      "company": "Bliss",
      "href": null
    },
    {
      "title": "‚òï Coffee break",
      "hours": "05/06/2022 04:20 AM",
      "speaker": null,
      "company": null,
      "href": null
    },
    {
      "title": "[Pitch] DTx CoLAB",
      "hours": "05/06/2022 04:50 PM",
      "speaker": null,
      "company": null,
      "href": null
    },
    {
      "title": "[Pitch] Accenture READY! SET! CLOUD!",
      "hours": "05/06/2022 05:00 PM",
      "speaker": null,
      "company": null,
      "href": null
    },
    {
      "title": "Board Game Night",
      "hours": "05/06/2022 09:30 PM",
      "speaker": null,
      "company": null,
      "href": null
    }
  ],
  "tuesday": [
    {
      "title": "[Workshop] Kick-Start a React Project",
      "hours": "06/06/2022 09:00 AM",
      "speaker": "Rui Rigueira",
      "company": "Bliss",
      "href": ""
    },
    {
      "title": "‚òï Coffee break",
      "hours": "06/06/2022 11:00 AM",
      "speaker": null,
      "company": null,
      "href": null
    },
    {
      "title": "[Talk] Mobile Development and MEO Go Showcase",
      "hours": "06/06/2022 11:30 AM",
      "speaker": "Romeu Gomes",
      "company": "Bliss"
    },
    {
      "title": "üçù Almo√ßo",
      "hours": "06/06/2022 12:30 PM",
      "speaker": null,
      "company": null,
      "href": null
    },
    {
      "title": "[Talk] Intelig√™ncia Artificial nos nossos dias",
      "hours": "06/06/2022 02:00 PM",
      "speaker": "Paulo Novais",
      "company": "Professor Universit√°rio",
      "href": null
    },
    {
      "title": "[Pitch] Retail Consult",
      "hours": "06/06/2022 03:00 PM",
      "speaker": null,
      "company": null,
      "href": null
    },
    {
      "title": "Concurso de Programa√ß√£o",
      "hours": "06/06/2022 03:10 PM",
      "speaker": null,
      "company": null,
      "href": null
    },
    {
      "title": "‚òï Coffee break",
      "hours": "06/06/2022 04:10 PM",
      "speaker": null,
      "company": null,
      "href": null
    },
    {
      "title": "[Pitch] Accenture",
      "hours": "06/06/2022 04:40 PM",
      "speaker": null,
      "company": null,
      "href": null
    },
    {
      "title": "[Talk] CI/CD > Build/Deploy Automation",
      "hours": "06/06/2022 04:50 PM",
      "speaker": null,
      "company": null,
      "href": null
    },
    {
      "title": "[Pitch] Altice Labs",
      "hours": "06/06/2022 05:15 PM",
      "speaker": null,
      "company": null,
      "href": null
    },
    {
      "title": "Board Game Night",
      "hours": "05/06/2022 09:30 PM",
      "speaker": null,
      "company": null,
      "href": null
    }
  ],
  "wednesday": [
    {
      "title": "[Workshop] Testa ou detesta o teu c√≥digo (Testes unit√°rios)",
      "hours": "07/06/2022 09:00 AM",
      "speaker": "Hugo Cardoso",
      "company": "Agentifai",
      "href": null
    },
    {
      "title": "‚òï Coffee break",
      "hours": "07/06/2022 11:00 AM",
      "speaker": null,
      "company": null,
      "href": null
    },
    {
      "title": "[Talk] Gerando novas mol√©culas ado√ßantes com Intelig√™ncia Artificial",
      "hours": "07/06/2022 11:30 AM",
      "speaker": "Jo√£o Capela",
      "company": "CEB",
      "href": null
    },
    {
      "title": "[Pitch] Algoritmi",
      "hours": "06/06/2022 12:10 PM",
      "speaker": null,
      "company": null,
      "href": null
    },
    {
      "title": "üçù Almo√ßo",
      "hours": "07/06/2022 12:30 PM",
      "speaker": null,
      "company": null,
      "href": null
    },
    {
      "title": "[Talk] Regulamenta√ß√£o e Futuro da IA na Comunidade Europeia",
      "hours": "07/06/2022 02:00 PM",
      "speaker": "Alexandra Oliveira",
      "company": "Retail Consult",
      "href": null
    },
    {
      "title": "[Talk] What is quantum computing ‚Ä¶ and why you should care",
      "hours": "07/06/2022 03:00 PM",
      "speaker": "Prof. Luis Soares Barbosa e Investiagor / HasLab",
      "company": null,
      "href": null
    },
    {
      "title": "[Pitch] INESCTEC",
      "hours": "07/06/2022 04:00 PM",
      "speaker": null,
      "company": null,
      "href": null
    },
    {
      "title": "Cerim√≥nia de encerramento",
      "hours": "07/06/2022 04:10 PM",
      "speaker": null,
      "company": null,
      "href": null
    }
  ]
}
